{
  "type" : "FeatureCollection",
  "features" : [{"type":"Feature","id":1,"geometry":{"type":"Point","coordinates":[-72.672619406096189,41.768314743415985]},"properties":{"OBJECTID":1,"ID":"10027548","SECCLASS":"UNCLASSIFIED","NAME":"CAPITAL COMMUNITY TECHNICAL COLLEGE CAMPUS POLICE","TELEPHONE":"860-906-5075","ADDRESS":"950 MAIN STREET","ADDRESS2":" ","CITY":"HARTFORD","STATE":"CT","ZIP":"06103","ZIPP4":"1207","COUNTY":"HARTFORD","FIPS":"09003","DIRECTIONS":"EAST SIDE OF MAIN STREET 0.04 MILES NORTH OF THE INTERSECTION OF MAIN STREET AND TEMPLE STREET","EMERGTITLE":" ","EMERGTEL":" ","EMERGEXT":" ","CONTDATE":1165536000000,"CONTHOW":"PHONE","GEODATE":1343347200000,"GEOHOW":"MANUAL","NAICSCODE":"922120","NAICSDESCR":"POLICE DEPARTMENTS (EXCEPT AMERICAN INDIAN OR ALASKA NATIVE)","GEOLINKID":"22304779","X":-72.672619400000002,"Y":41.768314740000001,"ST_VENDOR":"NAVTEQ","ST_VERSION":"2008Q1","GEOPREC":"BLOCKFACE","PHONELOC":"YES","QC_QA":"SOC","STATE_ID":" ","ORI":" ","LEMAS_ID":"0700000000204100","SECLEVEL":" ","FACTYPE":" ","AGENCY":" ","INMATE_MEN":" ","INMATE_WOM":" ","INMATE_JUV":" ","INMATE_COE":" ","CAPACITY":0,"TOTALPOP":0,"EMERPHONE":" ","PERM_ID":" ","GNIS_ID":" ","CI":" "}},{"type":"Feature","id":2,"geometry":{"type":"Point","coordinates":[-72.260601256595535,41.809741250035607]},"properties":{"OBJECTID":2,"ID":"10027523","SECCLASS":"UNCLASSIFIED","NAME":"UNIVERSITY OF CONNECTICUT-STORRS POLICE HEADQUARTERS","TELEPHONE":"860-486-4800","ADDRESS":"126 NORTH EAGLEVILLE ROAD","ADDRESS2":" ","CITY":"STORRS","STATE":"CT","ZIP":"06269","ZIPP4":"9011","COUNTY":"TOLLAND","FIPS":"09013","DIRECTIONS":"LOCATED ON THE NORTH SIDE OF NORTH EAGLEVILLE ROAD. BETWEEN LEDOYT ROAD AND NORTH HILLSIDE ROAD.","EMERGTITLE":" ","EMERGTEL":" ","EMERGEXT":" ","CONTDATE":1165449600000,"CONTHOW":"PHONE","GEODATE":1165449600000,"GEOHOW":"MANUAL","NAICSCODE":"922120","NAICSDESCR":"POLICE DEPARTMENTS (EXCEPT AMERICAN INDIAN OR ALASKA NATIVE)","GEOLINKID":"89691658","X":-72.260601249999993,"Y":41.809741250000002,"ST_VENDOR":"NAVTEQ","ST_VERSION":"2008Q1","GEOPREC":"BLOCKFACE","PHONELOC":"YES","QC_QA":"TGS","STATE_ID":" ","ORI":" ","LEMAS_ID":"0700000000203000","SECLEVEL":" ","FACTYPE":" ","AGENCY":" ","INMATE_MEN":" ","INMATE_WOM":" ","INMATE_JUV":" ","INMATE_COE":" ","CAPACITY":0,"TOTALPOP":0,"EMERPHONE":" ","PERM_ID":" ","GNIS_ID":" ","CI":" "}},{"type":"Feature","id":3,"geometry":{"type":"Point","coordinates":[-72.775379275176476,41.626844497669218]},"properties":{"OBJECTID":3,"ID":"10833881","SECCLASS":"UNCLASSIFIED","NAME":"BERLIN POLICE DEPARTMENT","TELEPHONE":"860-828-7086","ADDRESS":"240 KENSINGTON ROAD","ADDRESS2":" ","CITY":"KENSINGTON","STATE":"CT","ZIP":"06037","ZIPP4":"2655","COUNTY":"HARTFORD","FIPS":"09003","DIRECTIONS":"FROM THE INTERSECTION OF KENSINGTON RD AND MARJORIE MOORE TRAVEL ABOUT .3 MILES WEST ON MARJORIE MOORE. TURN NORTHWEST AND TRAVEL LESS THAN .1 MILES NORTHWEST ON TOWNE DRIVE. FAC IS ON SOUTH SIDE OF TOWNE DRIVE.","EMERGTITLE":" ","EMERGTEL":" ","EMERGEXT":" ","CONTDATE":1225756800000,"CONTHOW":"PHONE","GEODATE":1225756800000,"GEOHOW":"MANUAL","NAICSCODE":"922120","NAICSDESCR":"POLICE DEPARTMENTS (EXCEPT AMERICAN INDIAN OR ALASKA NATIVE)","GEOLINKID":"22310479","X":-72.775379270000002,"Y":41.626844490000003,"ST_VENDOR":"NAVTEQ","ST_VERSION":"2008Q1","GEOPREC":"ONENTITY","PHONELOC":"YES","QC_QA":"TGS","STATE_ID":" ","ORI":" ","LEMAS_ID":" ","SECLEVEL":" ","FACTYPE":" ","AGENCY":" ","INMATE_MEN":" ","INMATE_WOM":" ","INMATE_JUV":" ","INMATE_COE":" ","CAPACITY":0,"TOTALPOP":0,"EMERPHONE":" ","PERM_ID":" ","GNIS_ID":" ","CI":"Y"}},{"type":"Feature","id":4,"geometry":{"type":"Point","coordinates":[-72.739309859377073,41.758839989335065]},"properties":{"OBJECTID":4,"ID":"10834018","SECCLASS":"UNCLASSIFIED","NAME":"WEST HARTFORD POLICE DEPARTMENT","TELEPHONE":"860-523-5203","ADDRESS":"103 RAYMOND ROAD","ADDRESS2":" ","CITY":"WEST HARTFORD","STATE":"CT","ZIP":"06107","ZIPP4":"2538","COUNTY":"HARTFORD","FIPS":"09003","DIRECTIONS":"ON THE WEST SIDE OF RAYMOND ROAD ABOUT .1 MILES SOUTH OF THE INTERSECTION OF MEMORIAL ROAD AND RAYMOND ROAD.","EMERGTITLE":" ","EMERGTEL":" ","EMERGEXT":" ","CONTDATE":1225843200000,"CONTHOW":"PHONE","GEODATE":1225843200000,"GEOHOW":"MANUAL","NAICSCODE":"922120","NAICSDESCR":"POLICE DEPARTMENTS (EXCEPT AMERICAN INDIAN OR ALASKA NATIVE)","GEOLINKID":"22305411","X":-72.739465339999995,"Y":41.758933120000002,"ST_VENDOR":"NAVTEQ","ST_VERSION":"2008Q1","GEOPREC":"ONENTITY","PHONELOC":"YES","QC_QA":"TGS","STATE_ID":" ","ORI":" ","LEMAS_ID":" ","SECLEVEL":" ","FACTYPE":" ","AGENCY":" ","INMATE_MEN":" ","INMATE_WOM":" ","INMATE_JUV":" ","INMATE_COE":" ","CAPACITY":0,"TOTALPOP":0,"EMERPHONE":" ","PERM_ID":" ","GNIS_ID":" ","CI":"Y"}},{"type":"Feature","id":5,"geometry":{"type":"Point","coordinates":[-72.865920434035331,41.672919464879108]},"properties":{"OBJECTID":5,"ID":"10833978","SECCLASS":"UNCLASSIFIED","NAME":"PLAINVILLE POLICE DEPARTMENT","TELEPHONE":"860-747-1616","ADDRESS":"19 NEAL COURT","ADDRESS2":" ","CITY":"PLAINVILLE","STATE":"CT","ZIP":"06062","ZIPP4":"1603","COUNTY":"HARTFORD","FIPS":"09003","DIRECTIONS":"ON THE WEST SIDE OF NEAL COURT ABOUT .1 MILES NORTH OF THE INTERSECTION OF NEAL COURT AND EAST MAIN STREET.","EMERGTITLE":" ","EMERGTEL":" ","EMERGEXT":" ","CONTDATE":1225843200000,"CONTHOW":"PHONE","GEODATE":1225843200000,"GEOHOW":"MANUAL","NAICSCODE":"922120","NAICSDESCR":"POLICE DEPARTMENTS (EXCEPT AMERICAN INDIAN OR ALASKA NATIVE)","GEOLINKID":"22308750","X":-72.865920430000003,"Y":41.672919460000003,"ST_VENDOR":"NAVTEQ","ST_VERSION":"2008Q1","GEOPREC":"ONENTITY","PHONELOC":"YES","QC_QA":"TGS","STATE_ID":" ","ORI":" ","LEMAS_ID":" ","SECLEVEL":" ","FACTYPE":" ","AGENCY":" ","INMATE_MEN":" ","INMATE_WOM":" ","INMATE_JUV":" ","INMATE_COE":" ","CAPACITY":0,"TOTALPOP":0,"EMERPHONE":" ","PERM_ID":" ","GNIS_ID":" ","CI":"Y"}},{"type":"Feature","id":6,"geometry":{"type":"Point","coordinates":[-72.666706279874475,41.720389526087779]},"properties":{"OBJECTID":6,"ID":"10834023","SECCLASS":"UNCLASSIFIED","NAME":"WETHERSFIELD POLICE DEPARTMENT","TELEPHONE":"860-721-2900","ADDRESS":"250 SILAS DEANE HIGHWAY","ADDRESS2":" ","CITY":"WETHERSFIELD","STATE":"CT","ZIP":"06109","ZIPP4":"1702","COUNTY":"HARTFORD","FIPS":"09003","DIRECTIONS":"ON THE EAST SIDE OF SILAS DEANE HIGHWAY BETWEEN CUMBERLAND AVENUE AND OXFORD STREET.","EMERGTITLE":" ","EMERGTEL":" ","EMERGEXT":" ","CONTDATE":1225843200000,"CONTHOW":"PHONE","GEODATE":1225843200000,"GEOHOW":"MANUAL","NAICSCODE":"922120","NAICSDESCR":"POLICE DEPARTMENTS (EXCEPT AMERICAN INDIAN OR ALASKA NATIVE)","GEOLINKID":"22312586","X":-72.666542669999998,"Y":41.720344709999999,"ST_VENDOR":"NAVTEQ","ST_VERSION":"2008Q1","GEOPREC":"ONENTITY","PHONELOC":"YES","QC_QA":"TGS","STATE_ID":" ","ORI":" ","LEMAS_ID":" ","SECLEVEL":" ","FACTYPE":" ","AGENCY":" ","INMATE_MEN":" ","INMATE_WOM":" ","INMATE_JUV":" ","INMATE_COE":" ","CAPACITY":0,"TOTALPOP":0,"EMERPHONE":" ","PERM_ID":" ","GNIS_ID":" ","CI":"Y"}},{"type":"Feature","id":7,"geometry":{"type":"Point","coordinates":[-72.684576527805191,41.76392537620832]},"properties":{"OBJECTID":7,"ID":"10027547","SECCLASS":"UNCLASSIFIED","NAME":"CONNECTICUT STATE CAPITOL POLICE","TELEPHONE":"860-240-0240","ADDRESS":"210 CAPITOL AVENUE","ADDRESS2":" ","CITY":"HARTFORD","STATE":"CT","ZIP":"06106","ZIPP4":"1535","COUNTY":"HARTFORD","FIPS":"09003","DIRECTIONS":"NORTH SIDE OF CAPITOL AVE BETWEEN HUNGERFORD STREET AND OAK STREET","EMERGTITLE":" ","EMERGTEL":" ","EMERGEXT":" ","CONTDATE":1165536000000,"CONTHOW":"PHONE","GEODATE":1165536000000,"GEOHOW":"MANUAL","NAICSCODE":"922120","NAICSDESCR":"POLICE DEPARTMENTS (EXCEPT AMERICAN INDIAN OR ALASKA NATIVE)","GEOLINKID":"22305109","X":-72.685196509999997,"Y":41.764383100000003,"ST_VENDOR":"NAVTEQ","ST_VERSION":"2006Q3","GEOPREC":"ONENTITY","PHONELOC":"YES","QC_QA":"TGS","STATE_ID":" ","ORI":" ","LEMAS_ID":"0700000000205000","SECLEVEL":" ","FACTYPE":" ","AGENCY":" ","INMATE_MEN":" ","INMATE_WOM":" ","INMATE_JUV":" ","INMATE_COE":" ","CAPACITY":0,"TOTALPOP":0,"EMERPHONE":" ","PERM_ID":" ","GNIS_ID":" ","CI":" "}},{"type":"Feature","id":8,"geometry":{"type":"Point","coordinates":[-72.242583474752436,41.801436707680537]},"properties":{"OBJECTID":8,"ID":"10833948","SECCLASS":"UNCLASSIFIED","NAME":"CONNECTICUT STATE POLICE TROOP C - MANSFIELD RESIDENT STATE TROOPER","TELEPHONE":"860-429-6024","ADDRESS":"4 SOUTH EAGLEVILLE ROAD","ADDRESS2":" ","CITY":"MANSFIELD","STATE":"CT","ZIP":"06268","ZIPP4":"2574","COUNTY":"TOLLAND","FIPS":"09013","DIRECTIONS":"ON THE W CORNER OF S EAGLEVILLE RD AND STORRS RD","EMERGTITLE":" ","EMERGTEL":" ","EMERGEXT":" ","CONTDATE":1226361600000,"CONTHOW":"PHONE","GEODATE":1226361600000,"GEOHOW":"MANUAL","NAICSCODE":"922120","NAICSDESCR":"STATE POLICE","GEOLINKID":"92847474","X":-72.241465550000001,"Y":41.801492529999997,"ST_VENDOR":"NAVTEQ","ST_VERSION":"2008Q1","GEOPREC":"ONENTITY","PHONELOC":"YES","QC_QA":"TGS","STATE_ID":" ","ORI":" ","LEMAS_ID":" ","SECLEVEL":" ","FACTYPE":" ","AGENCY":" ","INMATE_MEN":" ","INMATE_WOM":" ","INMATE_JUV":" ","INMATE_COE":" ","CAPACITY":0,"TOTALPOP":0,"EMERPHONE":" ","PERM_ID":" ","GNIS_ID":" ","CI":"N"}},{"type":"Feature","id":9,"geometry":{"type":"Point","coordinates":[-72.362205308315509,41.658645701968815]},"properties":{"OBJECTID":9,"ID":"10833938","SECCLASS":"UNCLASSIFIED","NAME":"CONNECTICUT STATE POLICE TROOP C - HEBRON RESIDENT STATE TROOPER","TELEPHONE":"860-228-3710","ADDRESS":"44 MAIN STREET","ADDRESS2":" ","CITY":"HEBRON","STATE":"CT","ZIP":"06248","ZIPP4":"1515","COUNTY":"TOLLAND","FIPS":"09013","DIRECTIONS":"ON THE S SIDE OF MAIN ST BETWEEN WALL ST AND PENDLETON DR","EMERGTITLE":" ","EMERGTEL":" ","EMERGEXT":" ","CONTDATE":1226361600000,"CONTHOW":"PHONE","GEODATE":1226016000000,"GEOHOW":"MANUAL","NAICSCODE":"922120","NAICSDESCR":"STATE POLICE","GEOLINKID":"89654871","X":-72.362205299999999,"Y":41.658645700000001,"ST_VENDOR":"NAVTEQ","ST_VERSION":"2008Q1","GEOPREC":"ONENTITY","PHONELOC":"YES","QC_QA":"TGS","STATE_ID":" ","ORI":" ","LEMAS_ID":" ","SECLEVEL":" ","FACTYPE":" ","AGENCY":" ","INMATE_MEN":" ","INMATE_WOM":" ","INMATE_JUV":" ","INMATE_COE":" ","CAPACITY":0,"TOTALPOP":0,"EMERPHONE":" ","PERM_ID":" ","GNIS_ID":" ","CI":"N"}},{"type":"Feature","id":10,"geometry":{"type":"Point","coordinates":[-72.303364742720717,41.953431373128225]},"properties":{"OBJECTID":10,"ID":"10834000","SECCLASS":"UNCLASSIFIED","NAME":"CONNECTICUT STATE POLICE TROOP C - STAFFORD RESIDENT STATE TROOPER","TELEPHONE":"860-684-3777","ADDRESS":"2 MAIN STREET","ADDRESS2":" ","CITY":"STAFFORD","STATE":"CT","ZIP":"06076","ZIPP4":"1411","COUNTY":"TOLLAND","FIPS":"09013","DIRECTIONS":"ON THE S SIDE OF MAIN ST BETWEEN RIVER RD AND SPRING ST","EMERGTITLE":" ","EMERGTEL":" ","EMERGEXT":" ","CONTDATE":1225929600000,"CONTHOW":"PHONE","GEODATE":1225929600000,"GEOHOW":"MANUAL","NAICSCODE":"922120","NAICSDESCR":"STATE POLICE","GEOLINKID":"89679452","X":-72.303364740000006,"Y":41.953431369999997,"ST_VENDOR":"NAVTEQ","ST_VERSION":"2008Q1","GEOPREC":"ONENTITY","PHONELOC":"YES","QC_QA":"TGS","STATE_ID":" ","ORI":" ","LEMAS_ID":" ","SECLEVEL":" ","FACTYPE":" ","AGENCY":" ","INMATE_MEN":" ","INMATE_WOM":" ","INMATE_JUV":" ","INMATE_COE":" ","CAPACITY":0,"TOTALPOP":0,"EMERPHONE":" ","PERM_ID":" ","GNIS_ID":" ","CI":"N"}},{"type":"Feature","id":11,"geometry":{"type":"Point","coordinates":[-72.323171437705483,41.883211654346987]},"properties":{"OBJECTID":11,"ID":"10837811","SECCLASS":"UNCLASSIFIED","NAME":"CONNECTICUT STATE POLICE EASTERN DISTRICT TROOP C - TOLLAND","TELEPHONE":"860-896-3200","ADDRESS":"1320 TOLLAND STAGE ROAD","ADDRESS2":" ","CITY":"TOLLAND","STATE":"CT","ZIP":"06084","ZIPP4":"3111","COUNTY":"TOLLAND","FIPS":"09013","DIRECTIONS":"ENTITY ENTRANCE IS ON THE S SIDE OF TOLLAND STAGE RD BETWEEN EVERGREEN DR AND N RIVER RD","EMERGTITLE":" ","EMERGTEL":" ","EMERGEXT":" ","CONTDATE":1226016000000,"CONTHOW":"PHONE","GEODATE":1226016000000,"GEOHOW":"MANUAL","NAICSCODE":"922120","NAICSDESCR":"STATE POLICE","GEOLINKID":"89697415","X":-72.323218479999994,"Y":41.883222340000003,"ST_VENDOR":"NAVTEQ","ST_VERSION":"2008Q1","GEOPREC":"ONENTITY","PHONELOC":"YES","QC_QA":"TGS","STATE_ID":" ","ORI":" ","LEMAS_ID":" ","SECLEVEL":" ","FACTYPE":" ","AGENCY":" ","INMATE_MEN":" ","INMATE_WOM":" ","INMATE_JUV":" ","INMATE_COE":" ","CAPACITY":0,"TOTALPOP":0,"EMERPHONE":" ","PERM_ID":" ","GNIS_ID":" ","CI":"Y"}},{"type":"Feature","id":12,"geometry":{"type":"Point","coordinates":[-72.463849167978978,41.903002661313145]},"properties":{"OBJECTID":12,"ID":"10833924","SECCLASS":"UNCLASSIFIED","NAME":"CONNECTICUT STATE POLICE TROOP C - ELLINGTON RESIDENT STATE TROOPER","TELEPHONE":"860-875-1522","ADDRESS":"33 ARBOR WAY","ADDRESS2":" ","CITY":"ELLINGTON","STATE":"CT","ZIP":"06029","ZIPP4":"3354","COUNTY":"TOLLAND","FIPS":"09013","DIRECTIONS":"ON THE E SIDE OF ARBOR WAY LESS THEN .1 MILE N OF MAIN ST.","EMERGTITLE":" ","EMERGTEL":" ","EMERGEXT":" ","CONTDATE":1226016000000,"CONTHOW":"PHONE","GEODATE":1343347200000,"GEOHOW":"MANUAL","NAICSCODE":"922120","NAICSDESCR":"STATE POLICE","GEOLINKID":"89702713","X":-72.463849159999995,"Y":41.903002659999999,"ST_VENDOR":"NAVTEQ","ST_VERSION":"2008Q1","GEOPREC":"ONENTITY","PHONELOC":"YES","QC_QA":"SOC","STATE_ID":" ","ORI":" ","LEMAS_ID":" ","SECLEVEL":" ","FACTYPE":" ","AGENCY":" ","INMATE_MEN":" ","INMATE_WOM":" ","INMATE_JUV":" ","INMATE_COE":" ","CAPACITY":0,"TOTALPOP":0,"EMERPHONE":" ","PERM_ID":" ","GNIS_ID":" ","CI":"N"}},{"type":"Feature","id":13,"geometry":{"type":"Point","coordinates":[-72.309434110224871,41.777030602013092]},"properties":{"OBJECTID":13,"ID":"10833901","SECCLASS":"UNCLASSIFIED","NAME":"COVENTRY POLICE DEPARTMENT","TELEPHONE":"860-742-7331","ADDRESS":"1585 MAIN STREET","ADDRESS2":" ","CITY":"COVENTRY","STATE":"CT","ZIP":"06238","ZIPP4":"1615","COUNTY":"TOLLAND","FIPS":"09013","DIRECTIONS":"ON THE W SIDE OF MAIN ST .2 MILE NORTH OF SPRINGDALE AVE","EMERGTITLE":" ","EMERGTEL":" ","EMERGEXT":" ","CONTDATE":1226016000000,"CONTHOW":"PHONE","GEODATE":1226016000000,"GEOHOW":"MANUAL","NAICSCODE":"922120","NAICSDESCR":"POLICE DEPARTMENTS (EXCEPT AMERICAN INDIAN OR ALASKA NATIVE)","GEOLINKID":"89678899","X":-72.309434109999998,"Y":41.777030600000003,"ST_VENDOR":"NAVTEQ","ST_VERSION":"2008Q1","GEOPREC":"ONENTITY","PHONELOC":"YES","QC_QA":"TGS","STATE_ID":" ","ORI":" ","LEMAS_ID":" ","SECLEVEL":" ","FACTYPE":" ","AGENCY":" ","INMATE_MEN":" ","INMATE_WOM":" ","INMATE_JUV":" ","INMATE_COE":" ","CAPACITY":0,"TOTALPOP":0,"EMERPHONE":" ","PERM_ID":" ","GNIS_ID":" ","CI":"Y"}},{"type":"Feature","id":14,"geometry":{"type":"Point","coordinates":[-72.459302523933133,41.984512106644047]},"properties":{"OBJECTID":14,"ID":"10833995","SECCLASS":"UNCLASSIFIED","NAME":"CONNECTICUT STATE POLICE TROOP C - SOMERS RESIDENT STATE TROOPER","TELEPHONE":"860-749-4955","ADDRESS":"451 MAIN STREET","ADDRESS2":" ","CITY":"SOMERS","STATE":"CT","ZIP":"06071","ZIPP4":"2009","COUNTY":"TOLLAND","FIPS":"09013","DIRECTIONS":"ON THE N SIDE OF MAIN ST .2 MILE E OF SOKOL RD","EMERGTITLE":" ","EMERGTEL":" ","EMERGEXT":" ","CONTDATE":1226016000000,"CONTHOW":"PHONE","GEODATE":1226016000000,"GEOHOW":"MANUAL","NAICSCODE":"922120","NAICSDESCR":"STATE POLICE","GEOLINKID":"22277823","X":-72.459302519999994,"Y":41.984512100000003,"ST_VENDOR":"NAVTEQ","ST_VERSION":"2008Q1","GEOPREC":"ONENTITY","PHONELOC":"YES","QC_QA":"TGS","STATE_ID":" ","ORI":" ","LEMAS_ID":" ","SECLEVEL":" ","FACTYPE":" ","AGENCY":" ","INMATE_MEN":" ","INMATE_WOM":" ","INMATE_JUV":" ","INMATE_COE":" ","CAPACITY":0,"TOTALPOP":0,"EMERPHONE":" ","PERM_ID":" ","GNIS_ID":" ","CI":"N"}},{"type":"Feature","id":15,"geometry":{"type":"Point","coordinates":[-72.685279791891688,41.98459034645488]},"properties":{"OBJECTID":15,"ID":"10834004","SECCLASS":"UNCLASSIFIED","NAME":"SUFFIELD POLICE DEPARTMENT","TELEPHONE":"860-668-3870","ADDRESS":"911 MOUNTAIN ROAD","ADDRESS2":" ","CITY":"SUFFIELD","STATE":"CT","ZIP":"06078","ZIPP4":"3074","COUNTY":"HARTFORD","FIPS":"09003","DIRECTIONS":"ON THE SOUTH SIDE OF MOUNTAIN ROAD ABOUT .1 MILES WEST OF THE INTERSECTION OF PLANTATION DRIVE AND MOUNTAIN ROAD.","EMERGTITLE":" ","EMERGTEL":" ","EMERGEXT":" ","CONTDATE":1225843200000,"CONTHOW":"PHONE","GEODATE":1225843200000,"GEOHOW":"MANUAL","NAICSCODE":"922120","NAICSDESCR":"POLICE DEPARTMENTS (EXCEPT AMERICAN INDIAN OR ALASKA NATIVE)","GEOLINKID":"22324818","X":-72.685279789999996,"Y":41.984590339999997,"ST_VENDOR":"NAVTEQ","ST_VERSION":"2008Q1","GEOPREC":"ONENTITY","PHONELOC":"YES","QC_QA":"TGS","STATE_ID":" ","ORI":" ","LEMAS_ID":" ","SECLEVEL":" ","FACTYPE":" ","AGENCY":" ","INMATE_MEN":" ","INMATE_WOM":" ","INMATE_JUV":" ","INMATE_COE":" ","CAPACITY":0,"TOTALPOP":0,"EMERPHONE":" ","PERM_ID":" ","GNIS_ID":" ","CI":"Y"}},{"type":"Feature","id":16,"geometry":{"type":"Point","coordinates":[-72.689810386636637,41.933094495370668]},"properties":{"OBJECTID":16,"ID":"10476296","SECCLASS":"UNCLASSIFIED","NAME":"UNITED STATES CUSTOMS AND BORDER PROTECTION - SERVICE PORT - HARTFORD DEFERRED INSPECTION SITE","TELEPHONE":"860-292-1314","ADDRESS":"11 SCHOEPHOESTER ROAD","ADDRESS2":"BRADLEY INTERNATIONAL AIRPORT - INTERNATIONAL ARRIVALS BUILDING","CITY":"WINDSOR LOCKS","STATE":"CT","ZIP":"06096","ZIPP4":"1022","COUNTY":"HARTFORD","FIPS":"09003","DIRECTIONS":"LOCATED ON THE NORTHWEST SIDE OF TERMINAL ROAD 73 YARDS NORTHEAST OF BRADLEY FIELD CONN.","EMERGTITLE":" ","EMERGTEL":" ","EMERGEXT":" ","CONTDATE":1207872000000,"CONTHOW":"PHONE","GEODATE":1207872000000,"GEOHOW":"MANUAL","NAICSCODE":"922120","NAICSDESCR":"FEDERAL POLICE SERVICES","GEOLINKID":"22284940","X":-72.689810379999997,"Y":41.933094490000002,"ST_VENDOR":"NAVTEQ","ST_VERSION":"2006Q4","GEOPREC":"ONENTITY","PHONELOC":"YES","QC_QA":"TGS","STATE_ID":" ","ORI":" ","LEMAS_ID":" ","SECLEVEL":" ","FACTYPE":"PORTS OF ENTRY","AGENCY":"USCBP","INMATE_MEN":" ","INMATE_WOM":" ","INMATE_JUV":" ","INMATE_COE":" ","CAPACITY":0,"TOTALPOP":0,"EMERPHONE":" ","PERM_ID":" ","GNIS_ID":" ","CI":"Y"}},{"type":"Feature","id":17,"geometry":{"type":"Point","coordinates":[-72.765654926885929,41.690936542535191]},"properties":{"OBJECTID":17,"ID":"10026909","SECCLASS":"UNCLASSIFIED","NAME":"CENTRAL CONNECTICUT STATE UNIVERSITY POLICE","TELEPHONE":"860-832-2375","ADDRESS":"1615 STANLEY STREET","ADDRESS2":" ","CITY":"NEW BRITAIN","STATE":"CT","ZIP":"06050","ZIPP4":"2439","COUNTY":"HARTFORD","FIPS":"09003","DIRECTIONS":"FROM STANLEY STREET, TRAVEL 0.35 MILES ENE ON PAUL J MANAFORT DR ON NORTHWEST SIDE OF PAUL J MANAFORT DR.","EMERGTITLE":" ","EMERGTEL":" ","EMERGEXT":" ","CONTDATE":1165536000000,"CONTHOW":"PHONE","GEODATE":1165536000000,"GEOHOW":"MANUAL","NAICSCODE":"922120","NAICSDESCR":"POLICE DEPARTMENTS (EXCEPT AMERICAN INDIAN OR ALASKA NATIVE)","GEOLINKID":"22307712","X":-72.766519509999995,"Y":41.691377129999999,"ST_VENDOR":"NAVTEQ","ST_VERSION":"2006Q3","GEOPREC":"ONENTITY","PHONELOC":"YES","QC_QA":"TGS","STATE_ID":" ","ORI":" ","LEMAS_ID":"0700000000203500","SECLEVEL":" ","FACTYPE":" ","AGENCY":" ","INMATE_MEN":" ","INMATE_WOM":" ","INMATE_JUV":" ","INMATE_COE":" ","CAPACITY":0,"TOTALPOP":0,"EMERPHONE":" ","PERM_ID":" ","GNIS_ID":" ","CI":" "}},{"type":"Feature","id":18,"geometry":{"type":"Point","coordinates":[-72.561470105000524,41.761292772716835]},"properties":{"OBJECTID":18,"ID":"10026321","SECCLASS":"UNCLASSIFIED","NAME":"MANCHESTER COMMUNITY COLLEGE POLICE","TELEPHONE":"860-512-3680","ADDRESS":"60 BIDWELL STREET","ADDRESS2":"LOWE BUILDING ROOM 174","CITY":"MANCHESTER","STATE":"CT","ZIP":"06040","ZIPP4":"6449","COUNTY":"HARTFORD","FIPS":"09003","DIRECTIONS":"FROM BIDWELL STREET, TRAVEL .40 MILES SOUTHWEST ON RAMEY DRIVE ON WEST SIDE.","EMERGTITLE":" ","EMERGTEL":" ","EMERGEXT":" ","CONTDATE":1165536000000,"CONTHOW":"PHONE","GEODATE":1165536000000,"GEOHOW":"MANUAL","NAICSCODE":"922120","NAICSDESCR":"POLICE DEPARTMENTS (EXCEPT AMERICAN INDIAN OR ALASKA NATIVE)","GEOLINKID":"22226733","X":-72.561694459999998,"Y":41.761275269999999,"ST_VENDOR":"NAVTEQ","ST_VERSION":"2006Q3","GEOPREC":"ONENTITY","PHONELOC":"YES","QC_QA":"TGS","STATE_ID":" ","ORI":" ","LEMAS_ID":"0700000000203700","SECLEVEL":" ","FACTYPE":" ","AGENCY":" ","INMATE_MEN":" ","INMATE_WOM":" ","INMATE_JUV":" ","INMATE_COE":" ","CAPACITY":0,"TOTALPOP":0,"EMERPHONE":" ","PERM_ID":" ","GNIS_ID":" ","CI":" "}},{"type":"Feature","id":19,"geometry":{"type":"Point","coordinates":[-72.791577364003061,41.731095252733994]},"properties":{"OBJECTID":19,"ID":"10027907","SECCLASS":"UNCLASSIFIED","NAME":"UNIVERSITY OF CONNECTICUT - HEALTH CENTER POLICE","TELEPHONE":"860-679-2121","ADDRESS":"263 FARMINGTON AVENUE","ADDRESS2":" ","CITY":"FARMINGTON","STATE":"CT","ZIP":"06032","ZIPP4":"1956","COUNTY":"HARTFORD","FIPS":"09003","DIRECTIONS":"FROM THE INTERSECTION OF FARMINGTON AVE AND MAIN RD, TRAVEL SOUTHEAST ON MAIN ROAD 0.62 MILES TO INTERSECTION WITH EAST ROAD. FACILITY IS ON THE SOUTHWEST SIDE OF THE INTERSECTION OF MAIN ROAD AND EAST ROAD.","EMERGTITLE":" ","EMERGTEL":" ","EMERGEXT":" ","CONTDATE":1165795200000,"CONTHOW":"PHONE","GEODATE":1165795200000,"GEOHOW":"MANUAL","NAICSCODE":"922120","NAICSDESCR":"POLICE DEPARTMENTS (EXCEPT AMERICAN INDIAN OR ALASKA NATIVE)","GEOLINKID":"22323939","X":-72.791577360000005,"Y":41.731095250000003,"ST_VENDOR":"NAVTEQ","ST_VERSION":"2006Q3","GEOPREC":"ONENTITY","PHONELOC":"NO","QC_QA":"TGS","STATE_ID":" ","ORI":" ","LEMAS_ID":"0700000000204400","SECLEVEL":" ","FACTYPE":" ","AGENCY":" ","INMATE_MEN":" ","INMATE_WOM":" ","INMATE_JUV":" ","INMATE_COE":" ","CAPACITY":0,"TOTALPOP":0,"EMERPHONE":" ","PERM_ID":" ","GNIS_ID":" ","CI":" "}},{"type":"Feature","id":20,"geometry":{"type":"Point","coordinates":[-72.674250836483679,41.761285507743438]},"properties":{"OBJECTID":20,"ID":"10473062","SECCLASS":"UNCLASSIFIED","NAME":"BUREAU OF ALCOHOL TOBACCO FIREARMS AND EXPLOSIVES - HARTFORD FIELD OFFICE INDUSTRY OPERATIONS","TELEPHONE":"860-240-3400","ADDRESS":"450 MAIN STREET","ADDRESS2":"ROOM 610","CITY":"HARTFORD","STATE":"CT","ZIP":"06103","ZIPP4":"3026","COUNTY":"HARTFORD","FIPS":"09003","DIRECTIONS":"LOCATED ON THE SOUTHEAST CORNER OF MAIN STREET AND SHELDON STREET.","EMERGTITLE":" ","EMERGTEL":" ","EMERGEXT":" ","CONTDATE":1207872000000,"CONTHOW":"PHONE","GEODATE":1207872000000,"GEOHOW":"MANUAL","NAICSCODE":"922120","NAICSDESCR":"ALCOHOL, TOBACCO, AND FIREARMS CONTROL","GEOLINKID":"22305258","X":-72.674599790000002,"Y":41.760591470000001,"ST_VENDOR":"NAVTEQ","ST_VERSION":"2006Q4","GEOPREC":"ONENTITY","PHONELOC":"YES","QC_QA":"TGS","STATE_ID":" ","ORI":" ","LEMAS_ID":" ","SECLEVEL":" ","FACTYPE":" ","AGENCY":"ATF","INMATE_MEN":" ","INMATE_WOM":" ","INMATE_JUV":" ","INMATE_COE":" ","CAPACITY":0,"TOTALPOP":0,"EMERPHONE":" ","PERM_ID":" ","GNIS_ID":" ","CI":"N"}},{"type":"Feature","id":21,"geometry":{"type":"Point","coordinates":[-72.313347300061594,41.888436151564036]},"properties":{"OBJECTID":21,"ID":"10480440","SECCLASS":"UNCLASSIFIED","NAME":"UNITED STATES FISH AND WILDLIFE SERVICE - TOLLAND FIELD OFFICE","TELEPHONE":"860-871-8348","ADDRESS":"36 BUFF CAP ROAD","ADDRESS2":"SUITE 5","CITY":"TOLLAND","STATE":"CT","ZIP":"06084","ZIPP4":"2604","COUNTY":"TOLLAND","FIPS":"09013","DIRECTIONS":"LOCATED ON THE NORTH CORNER OF BUFF CAP ROAD AND NORTH RIVER ROAD.","EMERGTITLE":" ","EMERGTEL":" ","EMERGEXT":" ","CONTDATE":1208476800000,"CONTHOW":"PHONE","GEODATE":1208476800000,"GEOHOW":"MANUAL","NAICSCODE":"922120","NAICSDESCR":"FEDERAL POLICE SERVICES","GEOLINKID":"89696559","X":-72.313395349999993,"Y":41.888400599999997,"ST_VENDOR":"NAVTEQ","ST_VERSION":"2006Q4","GEOPREC":"ONENTITY","PHONELOC":"YES","QC_QA":"TGS","STATE_ID":" ","ORI":" ","LEMAS_ID":" ","SECLEVEL":" ","FACTYPE":" ","AGENCY":" ","INMATE_MEN":" ","INMATE_WOM":" ","INMATE_JUV":" ","INMATE_COE":" ","CAPACITY":0,"TOTALPOP":0,"EMERPHONE":" ","PERM_ID":" ","GNIS_ID":" ","CI":"N"}},{"type":"Feature","id":22,"geometry":{"type":"Point","coordinates":[-72.674250836483679,41.761285507743438]},"properties":{"OBJECTID":22,"ID":"10480437","SECCLASS":"UNCLASSIFIED","NAME":"DEPARTMENT OF IMMIGRATION - HARTFORD","TELEPHONE":"860-240-3012","ADDRESS":"450 MAIN STREET","ADDRESS2":"ABRAHAM RIBICOFF FEDERAL BUILDING","CITY":"HARTFORD","STATE":"CT","ZIP":"06103","ZIPP4":"3022","COUNTY":"HARTFORD","FIPS":"09003","DIRECTIONS":"LOCATED ON THE SOUTHEAST CORNER OF MAIN STREET AND SHELDON STREET.","EMERGTITLE":" ","EMERGTEL":" ","EMERGEXT":" ","CONTDATE":1208217600000,"CONTHOW":"PHONE","GEODATE":1208217600000,"GEOHOW":"MANUAL","NAICSCODE":"928120","NAICSDESCR":"IMMIGRATION SERVICES","GEOLINKID":"22305258","X":-72.674599790000002,"Y":41.760591470000001,"ST_VENDOR":"NAVTEQ","ST_VERSION":"2006Q4","GEOPREC":"ONENTITY","PHONELOC":"YES","QC_QA":"TGS","STATE_ID":" ","ORI":" ","LEMAS_ID":" ","SECLEVEL":" ","FACTYPE":" ","AGENCY":" ","INMATE_MEN":" ","INMATE_WOM":" ","INMATE_JUV":" ","INMATE_COE":" ","CAPACITY":0,"TOTALPOP":0,"EMERPHONE":" ","PERM_ID":" ","GNIS_ID":" ","CI":"Y"}},{"type":"Feature","id":23,"geometry":{"type":"Point","coordinates":[-72.674250836483679,41.761285507743438]},"properties":{"OBJECTID":23,"ID":"10480438","SECCLASS":"UNCLASSIFIED","NAME":"UNITED STATES DRUG ENFORCEMENT ADMINISTRATION - HARTFORD FIELD OFFICE","TELEPHONE":"860-240-3233","ADDRESS":"450 MAIN STREET","ADDRESS2":"ABRAHAM RIBICOFF FEDERAL BUILDING","CITY":"HARTFORD","STATE":"CT","ZIP":"06103","ZIPP4":"3022","COUNTY":"HARTFORD","FIPS":"09003","DIRECTIONS":"LOCATED ON THE SOUTHEAST CORNER OF MAIN STREET AND SHELDON STREET.","EMERGTITLE":" ","EMERGTEL":" ","EMERGEXT":" ","CONTDATE":1208217600000,"CONTHOW":"PHONE","GEODATE":1208217600000,"GEOHOW":"MANUAL","NAICSCODE":"922120","NAICSDESCR":"DEA (DRUG ENFORCEMENT ADMINISTRATION)","GEOLINKID":"22305258","X":-72.674599790000002,"Y":41.760591470000001,"ST_VENDOR":"NAVTEQ","ST_VERSION":"2006Q4","GEOPREC":"ONENTITY","PHONELOC":"YES","QC_QA":"TGS","STATE_ID":" ","ORI":" ","LEMAS_ID":" ","SECLEVEL":" ","FACTYPE":" ","AGENCY":" ","INMATE_MEN":" ","INMATE_WOM":" ","INMATE_JUV":" ","INMATE_COE":" ","CAPACITY":0,"TOTALPOP":0,"EMERPHONE":" ","PERM_ID":" ","GNIS_ID":" ","CI":"Y"}},{"type":"Feature","id":24,"geometry":{"type":"Point","coordinates":[-72.674250836483679,41.761285507743438]},"properties":{"OBJECTID":24,"ID":"10473270","SECCLASS":"UNCLASSIFIED","NAME":"UNITED STATES MARSHALS SERVICE - HARTFORD","TELEPHONE":"860-240-3245","ADDRESS":"450 MAIN STREET","ADDRESS2":"ABRAHAM RIBICOFF FEDERAL BUILDING","CITY":"HARTFORD","STATE":"CT","ZIP":"06103","ZIPP4":"3022","COUNTY":"HARTFORD","FIPS":"09003","DIRECTIONS":"LOCATED ON THE SOUTHEAST CORNER OF MAIN STREET AND SHELDON STREET.","EMERGTITLE":" ","EMERGTEL":" ","EMERGEXT":" ","CONTDATE":1208131200000,"CONTHOW":"PHONE","GEODATE":1208131200000,"GEOHOW":"MANUAL","NAICSCODE":"922120","NAICSDESCR":"MARSHALS' OFFICES","GEOLINKID":"22305258","X":-72.674599790000002,"Y":41.760591470000001,"ST_VENDOR":"NAVTEQ","ST_VERSION":"2006Q4","GEOPREC":"ONENTITY","PHONELOC":"YES","QC_QA":"TGS","STATE_ID":" ","ORI":" ","LEMAS_ID":" ","SECLEVEL":" ","FACTYPE":" ","AGENCY":"USMS","INMATE_MEN":" ","INMATE_WOM":" ","INMATE_JUV":" ","INMATE_COE":" ","CAPACITY":0,"TOTALPOP":0,"EMERPHONE":" ","PERM_ID":" ","GNIS_ID":" ","CI":"Y"}},{"type":"Feature","id":25,"geometry":{"type":"Point","coordinates":[-72.60718847798023,41.706208666631127]},"properties":{"OBJECTID":25,"ID":"10833930","SECCLASS":"UNCLASSIFIED","NAME":"GLASTONBURY POLICE DEPARTMENT","TELEPHONE":"860-633-8301","ADDRESS":"2108 MAIN STREET","ADDRESS2":" ","CITY":"GLASTONBURY","STATE":"CT","ZIP":"06033","ZIPP4":"2285","COUNTY":"HARTFORD","FIPS":"09003","DIRECTIONS":"ON THE EAST SIDE OF MAIN STREET ABOUT .1 MILES SOUTH OF THE INTERSECTION OF DOUGLAS ROAD AND MAIN STREET.","EMERGTITLE":" ","EMERGTEL":" ","EMERGEXT":" ","CONTDATE":1225756800000,"CONTHOW":"PHONE","GEODATE":1343347200000,"GEOHOW":"MANUAL","NAICSCODE":"922120","NAICSDESCR":"POLICE DEPARTMENTS (EXCEPT AMERICAN INDIAN OR ALASKA NATIVE)","GEOLINKID":"22267119","X":-72.607222969999995,"Y":41.706228400000001,"ST_VENDOR":"NAVTEQ","ST_VERSION":"2008Q1","GEOPREC":"ONENTITY","PHONELOC":"YES","QC_QA":"SOC","STATE_ID":" ","ORI":" ","LEMAS_ID":" ","SECLEVEL":" ","FACTYPE":" ","AGENCY":" ","INMATE_MEN":" ","INMATE_WOM":" ","INMATE_JUV":" ","INMATE_COE":" ","CAPACITY":0,"TOTALPOP":0,"EMERPHONE":" ","PERM_ID":" ","GNIS_ID":" ","CI":"Y"}},{"type":"Feature","id":26,"geometry":{"type":"Point","coordinates":[-72.836748373717242,41.810892487459043]},"properties":{"OBJECTID":26,"ID":"10833878","SECCLASS":"UNCLASSIFIED","NAME":"AVON POLICE DEPARTMENT","TELEPHONE":"860-677-9746","ADDRESS":"60 WEST MAIN STREET","ADDRESS2":" ","CITY":"AVON","STATE":"CT","ZIP":"06001","ZIPP4":"3719","COUNTY":"HARTFORD","FIPS":"09003","DIRECTIONS":"ON THE NORTH SIDE OF WEST MAIN STREET LESS THAN .1 MILES EAST OF THE INTERSECTION OF WEST MAIN STREET AND DARLING DRIVE.","EMERGTITLE":" ","EMERGTEL":" ","EMERGEXT":" ","CONTDATE":1225756800000,"CONTHOW":"PHONE","GEODATE":1225756800000,"GEOHOW":"MANUAL","NAICSCODE":"922120","NAICSDESCR":"POLICE DEPARTMENTS (EXCEPT AMERICAN INDIAN OR ALASKA NATIVE)","GEOLINKID":"22223452","X":-72.836748369999995,"Y":41.81089248,"ST_VENDOR":"NAVTEQ","ST_VERSION":"2008Q1","GEOPREC":"ONENTITY","PHONELOC":"YES","QC_QA":"TGS","STATE_ID":" ","ORI":" ","LEMAS_ID":" ","SECLEVEL":" ","FACTYPE":" ","AGENCY":" ","INMATE_MEN":" ","INMATE_WOM":" ","INMATE_JUV":" ","INMATE_COE":" ","CAPACITY":0,"TOTALPOP":0,"EMERPHONE":" ","PERM_ID":" ","GNIS_ID":" ","CI":"Y"}},{"type":"Feature","id":27,"geometry":{"type":"Point","coordinates":[-72.733694110548683,41.828675216738233]},"properties":{"OBJECTID":27,"ID":"10833884","SECCLASS":"UNCLASSIFIED","NAME":"BLOOMFIELD POLICE DEPARTMENT","TELEPHONE":"860-242-6060","ADDRESS":"785 PARK AVENUE","ADDRESS2":" ","CITY":"BLOOMFIELD","STATE":"CT","ZIP":"06002","ZIPP4":"2444","COUNTY":"HARTFORD","FIPS":"09003","DIRECTIONS":"ON THE SOUTHWEST SIDE OF PARK AVENUE BETWEEN SENECA ROAD AND JEROME AVENUE.","EMERGTITLE":" ","EMERGTEL":" ","EMERGEXT":" ","CONTDATE":1225756800000,"CONTHOW":"PHONE","GEODATE":1225756800000,"GEOHOW":"MANUAL","NAICSCODE":"922120","NAICSDESCR":"POLICE DEPARTMENTS (EXCEPT AMERICAN INDIAN OR ALASKA NATIVE)","GEOLINKID":"22301965","X":-72.733694110000002,"Y":41.82867521,"ST_VENDOR":"NAVTEQ","ST_VERSION":"2008Q1","GEOPREC":"ONENTITY","PHONELOC":"YES","QC_QA":"TGS","STATE_ID":" ","ORI":" ","LEMAS_ID":" ","SECLEVEL":" ","FACTYPE":" ","AGENCY":" ","INMATE_MEN":" ","INMATE_WOM":" ","INMATE_JUV":" ","INMATE_COE":" ","CAPACITY":0,"TOTALPOP":0,"EMERPHONE":" ","PERM_ID":" ","GNIS_ID":" ","CI":"Y"}},{"type":"Feature","id":28,"geometry":{"type":"Point","coordinates":[-72.919516459829936,41.817878735956043]},"properties":{"OBJECTID":28,"ID":"10833894","SECCLASS":"UNCLASSIFIED","NAME":"CANTON POLICE DEPARTMENT","TELEPHONE":"860-693-0221","ADDRESS":"45 RIVER ROAD","ADDRESS2":" ","CITY":"CANTON","STATE":"CT","ZIP":"06019","ZIPP4":"3174","COUNTY":"HARTFORD","FIPS":"09003","DIRECTIONS":"ON THE EAST SIDE OF RIVER ROAD ABOUT .2 MILES SOUTH OF THE INTERSECTION OF GILDERSLEEVE AVENUE AND RIVER ROAD.","EMERGTITLE":" ","EMERGTEL":" ","EMERGEXT":" ","CONTDATE":1225756800000,"CONTHOW":"PHONE","GEODATE":1343347200000,"GEOHOW":"MANUAL","NAICSCODE":"922120","NAICSDESCR":"POLICE DEPARTMENTS (EXCEPT AMERICAN INDIAN OR ALASKA NATIVE)","GEOLINKID":"31107101","X":-72.919516450000003,"Y":41.817878729999997,"ST_VENDOR":"NAVTEQ","ST_VERSION":"2008Q1","GEOPREC":"ONENTITY","PHONELOC":"YES","QC_QA":"SOC","STATE_ID":" ","ORI":" ","LEMAS_ID":" ","SECLEVEL":" ","FACTYPE":" ","AGENCY":" ","INMATE_MEN":" ","INMATE_WOM":" ","INMATE_JUV":" ","INMATE_COE":" ","CAPACITY":0,"TOTALPOP":0,"EMERPHONE":" ","PERM_ID":" ","GNIS_ID":" ","CI":"Y"}},{"type":"Feature","id":29,"geometry":{"type":"Point","coordinates":[-72.728763986487834,41.941680430108534]},"properties":{"OBJECTID":29,"ID":"10833915","SECCLASS":"UNCLASSIFIED","NAME":"EAST GRANBY POLICE DEPARTMENT","TELEPHONE":"860-653-5385","ADDRESS":"9 MEMORIAL DRIVE","ADDRESS2":" ","CITY":"EAST GRANBY","STATE":"CT","ZIP":"06026","ZIPP4":"9632","COUNTY":"HARTFORD","FIPS":"09003","DIRECTIONS":"ON THE SOUTH SIDE OF MEMORIAL DRIVE ABOUT .1 MILES WEST OF THE INTERSECTION OF SOUTH MAIN STREET AND MEMORIAL DRIVE.","EMERGTITLE":" ","EMERGTEL":" ","EMERGEXT":" ","CONTDATE":1225756800000,"CONTHOW":"PHONE","GEODATE":1343347200000,"GEOHOW":"MANUAL","NAICSCODE":"922120","NAICSDESCR":"POLICE DEPARTMENTS (EXCEPT AMERICAN INDIAN OR ALASKA NATIVE)","GEOLINKID":"22288935","X":-72.728763979999997,"Y":41.941680429999998,"ST_VENDOR":"NAVTEQ","ST_VERSION":"2008Q1","GEOPREC":"ONENTITY","PHONELOC":"YES","QC_QA":"SOC","STATE_ID":" ","ORI":" ","LEMAS_ID":" ","SECLEVEL":" ","FACTYPE":" ","AGENCY":" ","INMATE_MEN":" ","INMATE_WOM":" ","INMATE_JUV":" ","INMATE_COE":" ","CAPACITY":0,"TOTALPOP":0,"EMERPHONE":" ","PERM_ID":" ","GNIS_ID":" ","CI":"N"}},{"type":"Feature","id":30,"geometry":{"type":"Point","coordinates":[-72.618543983570433,41.926931449591116]},"properties":{"OBJECTID":30,"ID":"10833921","SECCLASS":"UNCLASSIFIED","NAME":"EAST WINDSOR POLICE DEPARTMENT","TELEPHONE":"860-292-8240","ADDRESS":"25 SCHOOL STREET","ADDRESS2":" ","CITY":"EAST WINDSOR","STATE":"CT","ZIP":"06088","ZIPP4":"9511","COUNTY":"HARTFORD","FIPS":"09003","DIRECTIONS":"ON THE SOUTHWEST CORNER OF SCHOOL STREET AND MAIN STREET.","EMERGTITLE":" ","EMERGTEL":" ","EMERGEXT":" ","CONTDATE":1225756800000,"CONTHOW":"PHONE","GEODATE":1343347200000,"GEOHOW":"MANUAL","NAICSCODE":"922120","NAICSDESCR":"POLICE DEPARTMENTS (EXCEPT AMERICAN INDIAN OR ALASKA NATIVE)","GEOLINKID":"22221092","X":-72.618674729999995,"Y":41.926937649999999,"ST_VENDOR":"NAVTEQ","ST_VERSION":"2008Q1","GEOPREC":"ONENTITY","PHONELOC":"YES","QC_QA":"SOC","STATE_ID":" ","ORI":" ","LEMAS_ID":" ","SECLEVEL":" ","FACTYPE":" ","AGENCY":" ","INMATE_MEN":" ","INMATE_WOM":" ","INMATE_JUV":" ","INMATE_COE":" ","CAPACITY":0,"TOTALPOP":0,"EMERPHONE":" ","PERM_ID":" ","GNIS_ID":" ","CI":"Y"}},{"type":"Feature","id":31,"geometry":{"type":"Point","coordinates":[-72.554001426388382,41.997409070654236]},"properties":{"OBJECTID":31,"ID":"10833925","SECCLASS":"UNCLASSIFIED","NAME":"ENFIELD POLICE DEPARTMENT","TELEPHONE":"860-763-6400","ADDRESS":"293 ELM STREET","ADDRESS2":" ","CITY":"ENFIELD","STATE":"CT","ZIP":"06082","ZIPP4":"3907","COUNTY":"HARTFORD","FIPS":"09003","DIRECTIONS":"ON THE EAST SIDE OF ELM STREET ABOUT .1 MILES SOUTH OF THE INTERSECTION OF MOODY ROAD AND ELM STREET.","EMERGTITLE":" ","EMERGTEL":" ","EMERGEXT":" ","CONTDATE":1225756800000,"CONTHOW":"PHONE","GEODATE":1225929600000,"GEOHOW":"MANUAL","NAICSCODE":"922120","NAICSDESCR":"POLICE DEPARTMENTS (EXCEPT AMERICAN INDIAN OR ALASKA NATIVE)","GEOLINKID":"22220183","X":-72.553986179999995,"Y":41.997401449999998,"ST_VENDOR":"NAVTEQ","ST_VERSION":"2008Q1","GEOPREC":"ONENTITY","PHONELOC":"YES","QC_QA":"TGS","STATE_ID":" ","ORI":" ","LEMAS_ID":" ","SECLEVEL":" ","FACTYPE":" ","AGENCY":" ","INMATE_MEN":" ","INMATE_WOM":" ","INMATE_JUV":" ","INMATE_COE":" ","CAPACITY":0,"TOTALPOP":0,"EMERPHONE":" ","PERM_ID":" ","GNIS_ID":" ","CI":"Y"}},{"type":"Feature","id":32,"geometry":{"type":"Point","coordinates":[-72.612296679571415,41.780214982011017]},"properties":{"OBJECTID":32,"ID":"10833918","SECCLASS":"UNCLASSIFIED","NAME":"EAST HARTFORD POLICE DEPARTMENT","TELEPHONE":"860-528-4401","ADDRESS":"31 SCHOOL STREET","ADDRESS2":" ","CITY":"EAST HARTFORD","STATE":"CT","ZIP":"06108","ZIPP4":"2638","COUNTY":"HARTFORD","FIPS":"09003","DIRECTIONS":"ON THE WEST SIDE OF SCHOOL STREET ABOUT .1 MILES NORTH OF THE INTERSECTION OF BURNSIDE AVENUE AND SCHOOL STREET.","EMERGTITLE":" ","EMERGTEL":" ","EMERGEXT":" ","CONTDATE":1225756800000,"CONTHOW":"PHONE","GEODATE":1225756800000,"GEOHOW":"MANUAL","NAICSCODE":"922120","NAICSDESCR":"POLICE DEPARTMENTS (EXCEPT AMERICAN INDIAN OR ALASKA NATIVE)","GEOLINKID":"22225426","X":-72.612296670000006,"Y":41.780214979999997,"ST_VENDOR":"NAVTEQ","ST_VERSION":"2008Q1","GEOPREC":"ONENTITY","PHONELOC":"YES","QC_QA":"TGS","STATE_ID":" ","ORI":" ","LEMAS_ID":" ","SECLEVEL":" ","FACTYPE":" ","AGENCY":" ","INMATE_MEN":" ","INMATE_WOM":" ","INMATE_JUV":" ","INMATE_COE":" ","CAPACITY":0,"TOTALPOP":0,"EMERPHONE":" ","PERM_ID":" ","GNIS_ID":" ","CI":"Y"}},{"type":"Feature","id":33,"geometry":{"type":"Point","coordinates":[-72.791757992748828,41.954676908496104]},"properties":{"OBJECTID":33,"ID":"10833858","SECCLASS":"UNCLASSIFIED","NAME":"GRANBY POLICE DEPARTMENT","TELEPHONE":"860-844-5335","ADDRESS":"15 NORTH GRANBY ROAD","ADDRESS2":" ","CITY":"GRANBY","STATE":"CT","ZIP":"06035","ZIPP4":"2102","COUNTY":"HARTFORD","FIPS":"09003","DIRECTIONS":"ON THE SOUTHWEST SIDE OF NORTH GRANBY ROAD LESS THAN .1 MILES NORTHWEST OF THE INTERSECTION OF MORGAN STREET AND NORTH GRANBY ROAD.","EMERGTITLE":" ","EMERGTEL":" ","EMERGEXT":" ","CONTDATE":1225756800000,"CONTHOW":"PHONE","GEODATE":1343347200000,"GEOHOW":"MANUAL","NAICSCODE":"922120","NAICSDESCR":"POLICE DEPARTMENTS (EXCEPT AMERICAN INDIAN OR ALASKA NATIVE)","GEOLINKID":"91952348","X":-72.791821459999994,"Y":41.954673300000003,"ST_VENDOR":"NAVTEQ","ST_VERSION":"2008Q1","GEOPREC":"ONENTITY","PHONELOC":"YES","QC_QA":"SOC","STATE_ID":" ","ORI":" ","LEMAS_ID":" ","SECLEVEL":" ","FACTYPE":" ","AGENCY":" ","INMATE_MEN":" ","INMATE_WOM":" ","INMATE_JUV":" ","INMATE_COE":" ","CAPACITY":0,"TOTALPOP":0,"EMERPHONE":" ","PERM_ID":" ","GNIS_ID":" ","CI":"Y"}},{"type":"Feature","id":34,"geometry":{"type":"Point","coordinates":[-72.368181054299072,41.728454186860233]},"properties":{"OBJECTID":34,"ID":"10833875","SECCLASS":"UNCLASSIFIED","NAME":"ANDOVER POLICE DEPARTMENT","TELEPHONE":"860-742-0235","ADDRESS":"17 SCHOOL ROAD","ADDRESS2":" ","CITY":"ANDOVER","STATE":"CT","ZIP":"06232","ZIPP4":"1526","COUNTY":"TOLLAND","FIPS":"09013","DIRECTIONS":"ON THE N SIDE OF SCHOOL RD .1 MILE E OF CT 316","EMERGTITLE":" ","EMERGTEL":" ","EMERGEXT":" ","CONTDATE":1225843200000,"CONTHOW":"PHONE","GEODATE":1343347200000,"GEOHOW":"MANUAL","NAICSCODE":"922120","NAICSDESCR":"POLICE DEPARTMENTS (EXCEPT AMERICAN INDIAN OR ALASKA NATIVE)","GEOLINKID":"89659290","X":-72.368181050000004,"Y":41.72845418,"ST_VENDOR":"NAVTEQ","ST_VERSION":"2008Q1","GEOPREC":"ONENTITY","PHONELOC":"YES","QC_QA":"SOC","STATE_ID":" ","ORI":" ","LEMAS_ID":" ","SECLEVEL":" ","FACTYPE":" ","AGENCY":" ","INMATE_MEN":" ","INMATE_WOM":" ","INMATE_JUV":" ","INMATE_COE":" ","CAPACITY":0,"TOTALPOP":0,"EMERPHONE":" ","PERM_ID":" ","GNIS_ID":" ","CI":"N"}},{"type":"Feature","id":35,"geometry":{"type":"Point","coordinates":[-72.873495245004989,41.749576069183505]},"properties":{"OBJECTID":35,"ID":"10833928","SECCLASS":"UNCLASSIFIED","NAME":"FARMINGTON POLICE DEPARTMENT","TELEPHONE":"860-675-2400","ADDRESS":"319 NEW BRITAIN AVENUE","ADDRESS2":" ","CITY":"UNIONVILLE","STATE":"CT","ZIP":"06085","ZIPP4":"1224","COUNTY":"HARTFORD","FIPS":"09003","DIRECTIONS":"ON THE NORTHEAST SIDE OF NEW BRITAIN AVENUE ABOUT .3 MILES NORTHWEST OF THE INTERSECTION OF OAKRIDGE AND NEW BRITAIN AVENUE.","EMERGTITLE":" ","EMERGTEL":" ","EMERGEXT":" ","CONTDATE":1225843200000,"CONTHOW":"PHONE","GEODATE":1225843200000,"GEOHOW":"MANUAL","NAICSCODE":"922120","NAICSDESCR":"POLICE DEPARTMENTS (EXCEPT AMERICAN INDIAN OR ALASKA NATIVE)","GEOLINKID":"31102719","X":-72.873495239999997,"Y":41.749576060000003,"ST_VENDOR":"NAVTEQ","ST_VERSION":"2008Q1","GEOPREC":"ONENTITY","PHONELOC":"YES","QC_QA":"TGS","STATE_ID":" ","ORI":" ","LEMAS_ID":" ","SECLEVEL":" ","FACTYPE":" ","AGENCY":" ","INMATE_MEN":" ","INMATE_WOM":" ","INMATE_JUV":" ","INMATE_COE":" ","CAPACITY":0,"TOTALPOP":0,"EMERPHONE":" ","PERM_ID":" ","GNIS_ID":" ","CI":"Y"}},{"type":"Feature","id":36,"geometry":{"type":"Point","coordinates":[-72.681824368252393,41.759786748652218]},"properties":{"OBJECTID":36,"ID":"10837798","SECCLASS":"UNCLASSIFIED","NAME":"CONNECTICUT STATE POLICE CENTRAL DISTRICT TROOP H - HARTFORD","TELEPHONE":"860-534-1000","ADDRESS":"100 WASHINGTON STREET","ADDRESS2":" ","CITY":"HARTFORD","STATE":"CT","ZIP":"06106","ZIPP4":"4419","COUNTY":"HARTFORD","FIPS":"09003","DIRECTIONS":"ON THE EAST SIDE OF WASHINGTON STREET ABOUT .1 MILES SOUTH OF THE INTERSECTION OF WASHINGTON STREET AND RUSS STREET.","EMERGTITLE":" ","EMERGTEL":" ","EMERGEXT":" ","CONTDATE":1225756800000,"CONTHOW":"PHONE","GEODATE":1225843200000,"GEOHOW":"MANUAL","NAICSCODE":"922120","NAICSDESCR":"STATE POLICE","GEOLINKID":"22305433","X":-72.682114659999996,"Y":41.759236280000003,"ST_VENDOR":"NAVTEQ","ST_VERSION":"2008Q1","GEOPREC":"ONENTITY","PHONELOC":"YES","QC_QA":"TGS","STATE_ID":" ","ORI":" ","LEMAS_ID":" ","SECLEVEL":" ","FACTYPE":" ","AGENCY":" ","INMATE_MEN":" ","INMATE_WOM":" ","INMATE_JUV":" ","INMATE_COE":" ","CAPACITY":0,"TOTALPOP":0,"EMERPHONE":" ","PERM_ID":" ","GNIS_ID":" ","CI":"Y"}},{"type":"Feature","id":37,"geometry":{"type":"Point","coordinates":[-72.678758609528856,41.763354244379514]},"properties":{"OBJECTID":37,"ID":"10833909","SECCLASS":"UNCLASSIFIED","NAME":"CONNECTICUT DEPARTMENT OF ENVIRONMENTAL CONSERVATION POLICE - HEADQUARTERS","TELEPHONE":"860-424-3012","ADDRESS":"79 ELM STREET","ADDRESS2":" ","CITY":"HARTFORD","STATE":"CT","ZIP":"06106","ZIPP4":"1650","COUNTY":"HARTFORD","FIPS":"09003","DIRECTIONS":"LOC ON THE SOUTH SIDE OF ELM STREET BETWEEN CLINTON STREET AND WEST STREET.","EMERGTITLE":" ","EMERGTEL":" ","EMERGEXT":" ","CONTDATE":1225843200000,"CONTHOW":"PHONE","GEODATE":1225843200000,"GEOHOW":"MANUAL","NAICSCODE":"922120","NAICSDESCR":"POLICE DEPARTMENTS (EXCEPT AMERICAN INDIAN OR ALASKA NATIVE)","GEOLINKID":"22305083","X":-72.678688390000005,"Y":41.763093910000002,"ST_VENDOR":"NAVTEQ","ST_VERSION":"2008Q1","GEOPREC":"ONENTITY","PHONELOC":"YES","QC_QA":"TGS","STATE_ID":" ","ORI":" ","LEMAS_ID":" ","SECLEVEL":" ","FACTYPE":" ","AGENCY":" ","INMATE_MEN":" ","INMATE_WOM":" ","INMATE_JUV":" ","INMATE_COE":" ","CAPACITY":0,"TOTALPOP":0,"EMERPHONE":" ","PERM_ID":" ","GNIS_ID":" ","CI":"N"}},{"type":"Feature","id":38,"geometry":{"type":"Point","coordinates":[-72.652421388804015,41.785707026107374]},"properties":{"OBJECTID":38,"ID":"10833936","SECCLASS":"UNCLASSIFIED","NAME":"HARTFORD POLICE DEPARTMENT","TELEPHONE":"860-527-6300","ADDRESS":"50 JENNINGS ROAD","ADDRESS2":" ","CITY":"HARTFORD","STATE":"CT","ZIP":"06120","ZIPP4":"1611","COUNTY":"HARTFORD","FIPS":"09003","DIRECTIONS":"ON THE NORTHEAST CORNER OF JENNINGS ROAD AND FISCHER ROAD","EMERGTITLE":" ","EMERGTEL":" ","EMERGEXT":" ","CONTDATE":1225756800000,"CONTHOW":"PHONE","GEODATE":1225756800000,"GEOHOW":"MANUAL","NAICSCODE":"922120","NAICSDESCR":"POLICE DEPARTMENTS (EXCEPT AMERICAN INDIAN OR ALASKA NATIVE)","GEOLINKID":"22303646","X":-72.652421380000007,"Y":41.785707019999997,"ST_VENDOR":"NAVTEQ","ST_VERSION":"2008Q1","GEOPREC":"ONENTITY","PHONELOC":"YES","QC_QA":"TGS","STATE_ID":" ","ORI":" ","LEMAS_ID":" ","SECLEVEL":" ","FACTYPE":" ","AGENCY":" ","INMATE_MEN":" ","INMATE_WOM":" ","INMATE_JUV":" ","INMATE_COE":" ","CAPACITY":0,"TOTALPOP":0,"EMERPHONE":" ","PERM_ID":" ","GNIS_ID":" ","CI":"N"}},{"type":"Feature","id":39,"geometry":{"type":"Point","coordinates":[-72.511212905114562,41.784083339349223]},"properties":{"OBJECTID":39,"ID":"10833947","SECCLASS":"UNCLASSIFIED","NAME":"MANCHESTER POLICE DEPARTMENT","TELEPHONE":"860-645-5500","ADDRESS":"239 MIDDLE TURNPIKE EAST","ADDRESS2":" ","CITY":"MANCHESTER","STATE":"CT","ZIP":"06040","ZIPP4":"4206","COUNTY":"HARTFORD","FIPS":"09003","DIRECTIONS":"ON THE NORTH SIDE OF MIDDLE TURNPIKE EAST BETWEEN LENOX STREET AND WALKER STREET.","EMERGTITLE":" ","EMERGTEL":" ","EMERGEXT":" ","CONTDATE":1225756800000,"CONTHOW":"PHONE","GEODATE":1225756800000,"GEOHOW":"MANUAL","NAICSCODE":"922120","NAICSDESCR":"POLICE DEPARTMENTS (EXCEPT AMERICAN INDIAN OR ALASKA NATIVE)","GEOLINKID":"22225046","X":-72.511765580000002,"Y":41.784877209999998,"ST_VENDOR":"NAVTEQ","ST_VERSION":"2008Q1","GEOPREC":"ONENTITY","PHONELOC":"YES","QC_QA":"TGS","STATE_ID":" ","ORI":" ","LEMAS_ID":" ","SECLEVEL":" ","FACTYPE":" ","AGENCY":" ","INMATE_MEN":" ","INMATE_WOM":" ","INMATE_JUV":" ","INMATE_COE":" ","CAPACITY":0,"TOTALPOP":0,"EMERPHONE":" ","PERM_ID":" ","GNIS_ID":" ","CI":"Y"}},{"type":"Feature","id":40,"geometry":{"type":"Point","coordinates":[-72.464153701351862,41.668677846719575]},"properties":{"OBJECTID":40,"ID":"10833949","SECCLASS":"UNCLASSIFIED","NAME":"MARLBOROUGH POLICE DEPARTMENT","TELEPHONE":"860-295-9098","ADDRESS":"200 WEST ROAD","ADDRESS2":" ","CITY":"MARLBOROUGH","STATE":"CT","ZIP":"06447","ZIPP4":"1034","COUNTY":"HARTFORD","FIPS":"09003","DIRECTIONS":"ON THE SOUTHEAST CORNER OF WEST ROAD AND JONES HOLLOW ROAD.","EMERGTITLE":" ","EMERGTEL":" ","EMERGEXT":" ","CONTDATE":1225929600000,"CONTHOW":"PHONE","GEODATE":1225756800000,"GEOHOW":"MANUAL","NAICSCODE":"922120","NAICSDESCR":"POLICE DEPARTMENTS (EXCEPT AMERICAN INDIAN OR ALASKA NATIVE)","GEOLINKID":"91959801","X":-72.464153699999997,"Y":41.668677840000001,"ST_VENDOR":"NAVTEQ","ST_VERSION":"2008Q1","GEOPREC":"ONENTITY","PHONELOC":"YES","QC_QA":"TGS","STATE_ID":" ","ORI":" ","LEMAS_ID":" ","SECLEVEL":" ","FACTYPE":" ","AGENCY":" ","INMATE_MEN":" ","INMATE_WOM":" ","INMATE_JUV":" ","INMATE_COE":" ","CAPACITY":0,"TOTALPOP":0,"EMERPHONE":" ","PERM_ID":" ","GNIS_ID":" ","CI":"N"}},{"type":"Feature","id":41,"geometry":{"type":"Point","coordinates":[-72.777441314792043,41.667180389298615]},"properties":{"OBJECTID":41,"ID":"10833959","SECCLASS":"UNCLASSIFIED","NAME":"NEW BRITAIN POLICE DEPARTMENT","TELEPHONE":"860-826-3000","ADDRESS":"125 COLUMBUS BOULEVARD","ADDRESS2":" ","CITY":"NEW BRITAIN","STATE":"CT","ZIP":"06051","ZIPP4":"2226","COUNTY":"HARTFORD","FIPS":"09003","DIRECTIONS":"ON THE SOUTHEAST SIDE OF COLUMBUS BOULEVARD ABOUT .1 MILES NORTHWEST OF THE INTERSECTION OF CHESTNUT STREET AND COLUMBUS BOULEVARD.","EMERGTITLE":" ","EMERGTEL":" ","EMERGEXT":" ","CONTDATE":1225756800000,"CONTHOW":"PHONE","GEODATE":1225756800000,"GEOHOW":"MANUAL","NAICSCODE":"922120","NAICSDESCR":"POLICE DEPARTMENTS (EXCEPT AMERICAN INDIAN OR ALASKA NATIVE)","GEOLINKID":"92828128","X":-72.777383290000003,"Y":41.667286990000001,"ST_VENDOR":"NAVTEQ","ST_VERSION":"2008Q1","GEOPREC":"ONENTITY","PHONELOC":"YES","QC_QA":"TGS","STATE_ID":" ","ORI":" ","LEMAS_ID":" ","SECLEVEL":" ","FACTYPE":" ","AGENCY":" ","INMATE_MEN":" ","INMATE_WOM":" ","INMATE_JUV":" ","INMATE_COE":" ","CAPACITY":0,"TOTALPOP":0,"EMERPHONE":" ","PERM_ID":" ","GNIS_ID":" ","CI":"Y"}},{"type":"Feature","id":42,"geometry":{"type":"Point","coordinates":[-72.729886188890234,41.696899716989215]},"properties":{"OBJECTID":42,"ID":"10833964","SECCLASS":"UNCLASSIFIED","NAME":"NEWINGTON POLICE DEPARTMENT","TELEPHONE":"860-594-6218","ADDRESS":"131 CEDAR STREET","ADDRESS2":" ","CITY":"NEWINGTON","STATE":"CT","ZIP":"06111","ZIPP4":"2644","COUNTY":"HARTFORD","FIPS":"09003","DIRECTIONS":"ON THE SOUTH SIDE OF CEDAR STREET ABOUT .1 MILES WEST OF THE INTERSECTION OF MILL STREET EXT.","EMERGTITLE":" ","EMERGTEL":" ","EMERGEXT":" ","CONTDATE":1225756800000,"CONTHOW":"PHONE","GEODATE":1225756800000,"GEOHOW":"MANUAL","NAICSCODE":"922120","NAICSDESCR":"POLICE DEPARTMENTS (EXCEPT AMERICAN INDIAN OR ALASKA NATIVE)","GEOLINKID":"22313521","X":-72.729886179999994,"Y":41.696899709999997,"ST_VENDOR":"NAVTEQ","ST_VERSION":"2008Q1","GEOPREC":"ONENTITY","PHONELOC":"YES","QC_QA":"TGS","STATE_ID":" ","ORI":" ","LEMAS_ID":" ","SECLEVEL":" ","FACTYPE":" ","AGENCY":" ","INMATE_MEN":" ","INMATE_WOM":" ","INMATE_JUV":" ","INMATE_COE":" ","CAPACITY":0,"TOTALPOP":0,"EMERPHONE":" ","PERM_ID":" ","GNIS_ID":" ","CI":"Y"}},{"type":"Feature","id":43,"geometry":{"type":"Point","coordinates":[-72.63762066263952,41.668202484759895]},"properties":{"OBJECTID":43,"ID":"10833987","SECCLASS":"UNCLASSIFIED","NAME":"ROCKY HILL POLICE DEPARTMENT","TELEPHONE":"860-258-7640","ADDRESS":"699 OLD MAIN STREET","ADDRESS2":" ","CITY":"ROCKY HILL","STATE":"CT","ZIP":"06067","ZIPP4":"1517","COUNTY":"HARTFORD","FIPS":"09003","DIRECTIONS":"ON THE SOUTHWEST SIDE OF OLD MAIN STREET LESS THAN .1 MILES NORTHWEST OF THE INTERSECTION OF OLD MAIN STREET AND RIVERVIEW ROAD.","EMERGTITLE":" ","EMERGTEL":" ","EMERGEXT":" ","CONTDATE":1225843200000,"CONTHOW":"PHONE","GEODATE":1225843200000,"GEOHOW":"MANUAL","NAICSCODE":"922120","NAICSDESCR":"POLICE DEPARTMENTS (EXCEPT AMERICAN INDIAN OR ALASKA NATIVE)","GEOLINKID":"22314586","X":-72.637620659999996,"Y":41.668202479999998,"ST_VENDOR":"NAVTEQ","ST_VERSION":"2008Q1","GEOPREC":"ONENTITY","PHONELOC":"YES","QC_QA":"TGS","STATE_ID":" ","ORI":" ","LEMAS_ID":" ","SECLEVEL":" ","FACTYPE":" ","AGENCY":" ","INMATE_MEN":" ","INMATE_WOM":" ","INMATE_JUV":" ","INMATE_COE":" ","CAPACITY":0,"TOTALPOP":0,"EMERPHONE":" ","PERM_ID":" ","GNIS_ID":" ","CI":"Y"}},{"type":"Feature","id":44,"geometry":{"type":"Point","coordinates":[-72.800951439401402,41.88028063908817]},"properties":{"OBJECTID":44,"ID":"10833994","SECCLASS":"UNCLASSIFIED","NAME":"SIMSBURY POLICE DEPARTMENT","TELEPHONE":"860-658-3100","ADDRESS":"933 HOPMEADOW STREET","ADDRESS2":" ","CITY":"SIMSBURY","STATE":"CT","ZIP":"06070","ZIPP4":"1822","COUNTY":"HARTFORD","FIPS":"09003","DIRECTIONS":"ON THE WEST SIDE OF HOPMEADOW STREET LESS THAN .1 MILES SOUTH OF THE INTERSECTION OF HOPMEADOW STREET AND PENT ROAD.","EMERGTITLE":" ","EMERGTEL":" ","EMERGEXT":" ","CONTDATE":1225843200000,"CONTHOW":"PHONE","GEODATE":1225843200000,"GEOHOW":"MANUAL","NAICSCODE":"922120","NAICSDESCR":"POLICE DEPARTMENTS (EXCEPT AMERICAN INDIAN OR ALASKA NATIVE)","GEOLINKID":"91956427","X":-72.802036139999998,"Y":41.880668470000003,"ST_VENDOR":"NAVTEQ","ST_VERSION":"2008Q1","GEOPREC":"ONENTITY","PHONELOC":"YES","QC_QA":"TGS","STATE_ID":" ","ORI":" ","LEMAS_ID":" ","SECLEVEL":" ","FACTYPE":" ","AGENCY":" ","INMATE_MEN":" ","INMATE_WOM":" ","INMATE_JUV":" ","INMATE_COE":" ","CAPACITY":0,"TOTALPOP":0,"EMERPHONE":" ","PERM_ID":" ","GNIS_ID":" ","CI":"Y"}},{"type":"Feature","id":45,"geometry":{"type":"Point","coordinates":[-72.552021310431783,41.836186726527885]},"properties":{"OBJECTID":45,"ID":"10833996","SECCLASS":"UNCLASSIFIED","NAME":"SOUTH WINDSOR POLICE DEPARTMENT","TELEPHONE":"860-644-2551","ADDRESS":"151 SAND HILL ROAD","ADDRESS2":" ","CITY":"SOUTH WINDSOR","STATE":"CT","ZIP":"06074","ZIPP4":"2026","COUNTY":"HARTFORD","FIPS":"09003","DIRECTIONS":"ON THE SOUTH SIDE OF SANDHILL ROAD BETWEEN SUMMER HILL DRIVE AND NEVERS ROAD.","EMERGTITLE":" ","EMERGTEL":" ","EMERGEXT":" ","CONTDATE":1225756800000,"CONTHOW":"PHONE","GEODATE":1225929600000,"GEOHOW":"MANUAL","NAICSCODE":"922120","NAICSDESCR":"POLICE DEPARTMENTS (EXCEPT AMERICAN INDIAN OR ALASKA NATIVE)","GEOLINKID":"22344461","X":-72.552035950000004,"Y":41.836201260000003,"ST_VENDOR":"NAVTEQ","ST_VERSION":"2008Q1","GEOPREC":"ONENTITY","PHONELOC":"YES","QC_QA":"TGS","STATE_ID":" ","ORI":" ","LEMAS_ID":" ","SECLEVEL":" ","FACTYPE":" ","AGENCY":" ","INMATE_MEN":" ","INMATE_WOM":" ","INMATE_JUV":" ","INMATE_COE":" ","CAPACITY":0,"TOTALPOP":0,"EMERPHONE":" ","PERM_ID":" ","GNIS_ID":" ","CI":"Y"}},{"type":"Feature","id":46,"geometry":{"type":"Point","coordinates":[-72.876050569306003,41.622443021855979]},"properties":{"OBJECTID":46,"ID":"10833998","SECCLASS":"UNCLASSIFIED","NAME":"SOUTHINGTON POLICE DEPARTMENT","TELEPHONE":"860-378-1600","ADDRESS":"69 LAZY LANE","ADDRESS2":" ","CITY":"SOUTHINGTON","STATE":"CT","ZIP":"06489","ZIPP4":"1763","COUNTY":"HARTFORD","FIPS":"09003","DIRECTIONS":"ON THE NORTH SIDE OF LAZY LANE ABOUT .1 MILES WEST OF THE INTERSECTION OF LAZY LANE AND QUEEN STREET.","EMERGTITLE":" ","EMERGTEL":" ","EMERGEXT":" ","CONTDATE":1225843200000,"CONTHOW":"PHONE","GEODATE":1225843200000,"GEOHOW":"MANUAL","NAICSCODE":"922120","NAICSDESCR":"POLICE DEPARTMENTS (EXCEPT AMERICAN INDIAN OR ALASKA NATIVE)","GEOLINKID":"31104155","X":-72.876050559999996,"Y":41.622443019999999,"ST_VENDOR":"NAVTEQ","ST_VERSION":"2008Q1","GEOPREC":"ONENTITY","PHONELOC":"YES","QC_QA":"TGS","STATE_ID":" ","ORI":" ","LEMAS_ID":" ","SECLEVEL":" ","FACTYPE":" ","AGENCY":" ","INMATE_MEN":" ","INMATE_WOM":" ","INMATE_JUV":" ","INMATE_COE":" ","CAPACITY":0,"TOTALPOP":0,"EMERPHONE":" ","PERM_ID":" ","GNIS_ID":" ","CI":"Y"}},{"type":"Feature","id":47,"geometry":{"type":"Point","coordinates":[-72.660448126023454,41.85236177888973]},"properties":{"OBJECTID":47,"ID":"10834028","SECCLASS":"UNCLASSIFIED","NAME":"WINDSOR POLICE DEPARTMENT","TELEPHONE":"860-688-5063","ADDRESS":"340 BLOOMFIELD AVENUE","ADDRESS2":" ","CITY":"WINDSOR","STATE":"CT","ZIP":"06095","ZIPP4":"2709","COUNTY":"HARTFORD","FIPS":"09003","DIRECTIONS":"ON THE NORTHEAST CORNER OF BLOMFIELD AVENUE AND WILLIAM STREET.","EMERGTITLE":" ","EMERGTEL":" ","EMERGEXT":" ","CONTDATE":1225843200000,"CONTHOW":"PHONE","GEODATE":1225929600000,"GEOHOW":"MANUAL","NAICSCODE":"922120","NAICSDESCR":"POLICE DEPARTMENTS (EXCEPT AMERICAN INDIAN OR ALASKA NATIVE)","GEOLINKID":"22301425","X":-72.660448119999998,"Y":41.852361770000002,"ST_VENDOR":"NAVTEQ","ST_VERSION":"2008Q1","GEOPREC":"ONENTITY","PHONELOC":"YES","QC_QA":"TGS","STATE_ID":" ","ORI":" ","LEMAS_ID":" ","SECLEVEL":" ","FACTYPE":" ","AGENCY":" ","INMATE_MEN":" ","INMATE_WOM":" ","INMATE_JUV":" ","INMATE_COE":" ","CAPACITY":0,"TOTALPOP":0,"EMERPHONE":" ","PERM_ID":" ","GNIS_ID":" ","CI":"Y"}},{"type":"Feature","id":48,"geometry":{"type":"Point","coordinates":[-72.647194348185565,41.927354495473885]},"properties":{"OBJECTID":48,"ID":"10834027","SECCLASS":"UNCLASSIFIED","NAME":"WINDSOR LOCKS POLICE DEPARTMENT","TELEPHONE":"860-627-1461","ADDRESS":"4 VOLUNTEER DRIVE","ADDRESS2":" ","CITY":"WINDSOR LOCKS","STATE":"CT","ZIP":"06096","ZIPP4":"2134","COUNTY":"HARTFORD","FIPS":"09003","DIRECTIONS":"ON THE EAST SIDE OF VOLUNTEER DRIVE ABOUT .1 MILES NORTH OF THE INTERSECTION OF ELM STREET AND VOLUNTEER DRIVE.","EMERGTITLE":" ","EMERGTEL":" ","EMERGEXT":" ","CONTDATE":1225756800000,"CONTHOW":"PHONE","GEODATE":1225756800000,"GEOHOW":"MANUAL","NAICSCODE":"922120","NAICSDESCR":"POLICE DEPARTMENTS (EXCEPT AMERICAN INDIAN OR ALASKA NATIVE)","GEOLINKID":"89693915","X":-72.647194339999999,"Y":41.927354489999999,"ST_VENDOR":"NAVTEQ","ST_VERSION":"2008Q1","GEOPREC":"ONENTITY","PHONELOC":"YES","QC_QA":"TGS","STATE_ID":" ","ORI":" ","LEMAS_ID":" ","SECLEVEL":" ","FACTYPE":" ","AGENCY":" ","INMATE_MEN":" ","INMATE_WOM":" ","INMATE_JUV":" ","INMATE_COE":" ","CAPACITY":0,"TOTALPOP":0,"EMERPHONE":" ","PERM_ID":" ","GNIS_ID":" ","CI":"Y"}},{"type":"Feature","id":49,"geometry":{"type":"Point","coordinates":[-72.465236979752987,41.839573546614119]},"properties":{"OBJECTID":49,"ID":"10834011","SECCLASS":"UNCLASSIFIED","NAME":"VERNON POLICE DEPARTMENT","TELEPHONE":"860-872-9126","ADDRESS":"725 HARTFORD TURNPIKE","ADDRESS2":" ","CITY":"VERNON","STATE":"CT","ZIP":"06066","ZIPP4":"5115","COUNTY":"TOLLAND","FIPS":"09013","DIRECTIONS":"ON THE NW SIDE OF HARTFORD TPKE BETWEEN CENTER RD AND WEST ST.","EMERGTITLE":" ","EMERGTEL":" ","EMERGEXT":" ","CONTDATE":1225929600000,"CONTHOW":"PHONE","GEODATE":1225929600000,"GEOHOW":"MANUAL","NAICSCODE":"922120","NAICSDESCR":"POLICE DEPARTMENTS (EXCEPT AMERICAN INDIAN OR ALASKA NATIVE)","GEOLINKID":"22279249","X":-72.465236970000007,"Y":41.839573540000004,"ST_VENDOR":"NAVTEQ","ST_VERSION":"2008Q1","GEOPREC":"ONENTITY","PHONELOC":"YES","QC_QA":"TGS","STATE_ID":" ","ORI":" ","LEMAS_ID":" ","SECLEVEL":" ","FACTYPE":" ","AGENCY":" ","INMATE_MEN":" ","INMATE_WOM":" ","INMATE_JUV":" ","INMATE_COE":" ","CAPACITY":0,"TOTALPOP":0,"EMERPHONE":" ","PERM_ID":" ","GNIS_ID":" ","CI":"Y"}},{"type":"Feature","id":50,"geometry":{"type":"Point","coordinates":[-72.685484181975028,41.930335624970127]},"properties":{"OBJECTID":50,"ID":"10833856","SECCLASS":"UNCLASSIFIED","NAME":"CONNECTICUT STATE POLICE CENTRAL DISTRICT TROOP W - BRADLEY INTERNATIONAL AIRPORT","TELEPHONE":"860-292-7400","ADDRESS":"11 SCHOEPHOESTER ROAD","ADDRESS2":"BRADLEY INTERNATIONAL AIRPORT - TERMINAL B","CITY":"WINDSOR LOCKS","STATE":"CT","ZIP":"06096","ZIPP4":"1022","COUNTY":"HARTFORD","FIPS":"09003","DIRECTIONS":"FROM THE EASTERN MOST INTERSECTION OF SCHOEPHOESTER ROAD AND TERMINAL ROAD, TRAVEL ABOUT .4 MILES NORTHWEST ON TERMINAL ROAD. FACILITY IS ON NORTHEAST SIDE.","EMERGTITLE":" ","EMERGTEL":" ","EMERGEXT":" ","CONTDATE":1225843200000,"CONTHOW":"PHONE","GEODATE":1225843200000,"GEOHOW":"MANUAL","NAICSCODE":"922120","NAICSDESCR":"STATE POLICE","GEOLINKID":"22285051","X":-72.685484180000003,"Y":41.930335620000001,"ST_VENDOR":"NAVTEQ","ST_VERSION":"2008Q1","GEOPREC":"ONENTITY","PHONELOC":"YES","QC_QA":"TGS","STATE_ID":" ","ORI":" ","LEMAS_ID":" ","SECLEVEL":" ","FACTYPE":" ","AGENCY":" ","INMATE_MEN":" ","INMATE_WOM":" ","INMATE_JUV":" ","INMATE_COE":" ","CAPACITY":0,"TOTALPOP":0,"EMERPHONE":" ","PERM_ID":" ","GNIS_ID":" ","CI":"Y"}},{"type":"Feature","id":51,"geometry":{"type":"Point","coordinates":[-72.682904399243768,41.762534872068471]},"properties":{"OBJECTID":51,"ID":"10834001","SECCLASS":"UNCLASSIFIED","NAME":"SUPREME COURT POLICE DEPARTMENT","TELEPHONE":"860-757-2299","ADDRESS":"231 CAPITOL AVENUE","ADDRESS2":" ","CITY":"HARTFORD","STATE":"CT","ZIP":"06106","ZIPP4":"1548","COUNTY":"HARTFORD","FIPS":"09003","DIRECTIONS":"ON THE SOUTHEAST CORNER OF OAK STREET AND CAPITOL AVENUE.","EMERGTITLE":" ","EMERGTEL":" ","EMERGEXT":" ","CONTDATE":1225756800000,"CONTHOW":"PHONE","GEODATE":1225756800000,"GEOHOW":"MANUAL","NAICSCODE":"922120","NAICSDESCR":"POLICE DEPARTMENTS (EXCEPT AMERICAN INDIAN OR ALASKA NATIVE)","GEOLINKID":"22305109","X":-72.683649709999997,"Y":41.762404590000003,"ST_VENDOR":"NAVTEQ","ST_VERSION":"2008Q1","GEOPREC":"ONENTITY","PHONELOC":"YES","QC_QA":"TGS","STATE_ID":" ","ORI":" ","LEMAS_ID":" ","SECLEVEL":" ","FACTYPE":" ","AGENCY":" ","INMATE_MEN":" ","INMATE_WOM":" ","INMATE_JUV":" ","INMATE_COE":" ","CAPACITY":0,"TOTALPOP":0,"EMERPHONE":" ","PERM_ID":" ","GNIS_ID":" ","CI":"N"}},{"type":"Feature","id":52,"geometry":{"type":"Point","coordinates":[-72.706900547456129,41.772229513383706]},"properties":{"OBJECTID":52,"ID":"10024756","SECCLASS":"UNCLASSIFIED","NAME":"HARTFORD CAMPUS POLICE - SUBSTATION","TELEPHONE":"860-570-5173","ADDRESS":"65 ELIZABETH STREET","ADDRESS2":" ","CITY":"HARTFORD","STATE":"CT","ZIP":"06105","ZIPP4":"2259","COUNTY":"HARTFORD","FIPS":"09003","DIRECTIONS":"LOCATED ON THE SOUTH SIDE OF ELIZABETH STREET. 0.15 MILES WEST OF ASYLUM AVENUE.","EMERGTITLE":" ","EMERGTEL":" ","EMERGEXT":" ","CONTDATE":1165449600000,"CONTHOW":"PHONE","GEODATE":1165449600000,"GEOHOW":"MANUAL","NAICSCODE":"922120","NAICSDESCR":"POLICE DEPARTMENTS (EXCEPT AMERICAN INDIAN OR ALASKA NATIVE)","GEOLINKID":"22304354","X":-72.707043380000002,"Y":41.772776270000001,"ST_VENDOR":"NAVTEQ","ST_VERSION":"2006Q3","GEOPREC":"ONENTITY","PHONELOC":"YES","QC_QA":"TGS","STATE_ID":" ","ORI":" ","LEMAS_ID":" ","SECLEVEL":" ","FACTYPE":" ","AGENCY":" ","INMATE_MEN":" ","INMATE_WOM":" ","INMATE_JUV":" ","INMATE_COE":" ","CAPACITY":0,"TOTALPOP":0,"EMERPHONE":" ","PERM_ID":" ","GNIS_ID":" ","CI":" "}}]
}